  
[{"id":"30","name":"State St & Harrison St","latitude":"41.874","longitude":"-87.6277","capacity":"19"},{"id":"66","name":"Wilton Ave & Diversey Pkwy","latitude":"41.9325","longitude":"-87.6527","capacity":"19"},{"id":"163","name":"Morgan St & 18th St","latitude":"41.8581","longitude":"-87.6511","capacity":"15"},{"id":"164","name":"Racine Ave & 18th St","latitude":"41.8582","longitude":"-87.6565","capacity":"15"},{"id":"223","name":"Wood St & North Ave","latitude":"41.9103","longitude":"-87.6725","capacity":"15"},{"id":"246","name":"Wood St & Division St","latitude":"41.9033","longitude":"-87.6727","capacity":"15"},{"id":"139","name":"Loomis St & Taylor St","latitude":"41.8694","longitude":"-87.661","capacity":"15"},{"id":"154","name":"Sheffield Ave & Kingsbury St","latitude":"41.9096","longitude":"-87.6535","capacity":"15"},{"id":"157","name":"Aberdeen St & Jackson Blvd","latitude":"41.8777","longitude":"-87.6548","capacity":"15"},{"id":"160","name":"May St & Taylor St","latitude":"41.8695","longitude":"-87.6555","capacity":"15"},{"id":"172","name":"Orleans St & Elm St","latitude":"41.9029","longitude":"-87.6377","capacity":"15"},{"id":"262","name":"Fairbanks Ct & Grand Ave","latitude":"41.8919","longitude":"-87.6206","capacity":"15"},{"id":"34","name":"Michigan Ave & Pearson St","latitude":"41.8977","longitude":"-87.6235","capacity":"23"},{"id":"51","name":"McClurg Ct & Illinois St","latitude":"41.891","longitude":"-87.6173","capacity":"23"},{"id":"174","name":"Larrabee St & North Ave","latitude":"41.9102","longitude":"-87.6435","capacity":"19"},{"id":"282","name":"Larrabee St & Menomonee St","latitude":"41.9147","longitude":"-87.6433","capacity":"15"},{"id":"290","name":"Noble St & Milwaukee Ave","latitude":"41.9007","longitude":"-87.6626","capacity":"15"},{"id":"248","name":"Ashland Ave & Augusta Blvd","latitude":"41.8996","longitude":"-87.6677","capacity":"15"},{"id":"17","name":"Franklin St & Chicago Ave","latitude":"41.8968","longitude":"-87.6356","capacity":"23"},{"id":"76","name":"Racine Ave & Congress Pkwy","latitude":"41.8746","longitude":"-87.657","capacity":"19"},{"id":"3","name":"State St & Van Buren St","latitude":"41.8772","longitude":"-87.6278","capacity":"27"},{"id":"124","name":"Cannon Dr & Fullerton Ave","latitude":"41.9268","longitude":"-87.6344","capacity":"15"},{"id":"22","name":"Streeter Dr & Illinois St","latitude":"41.8911","longitude":"-87.6122","capacity":"35"},{"id":"19","name":"Franklin St & Jackson Blvd","latitude":"41.8777","longitude":"-87.6353","capacity":"27"},{"id":"20","name":"Dearborn St & Adams St","latitude":"41.8794","longitude":"-87.6298","capacity":"19"},{"id":"170","name":"Wabash Ave & Cermak Rd","latitude":"41.8532","longitude":"-87.6253","capacity":"15"},{"id":"1","name":"Michigan Ave & Washington St","latitude":"41.8839","longitude":"-87.6246","capacity":"43"},{"id":"2","name":"State St & Randolph St","latitude":"41.8847","longitude":"-87.6277","capacity":"27"},{"id":"40","name":"Michigan Ave & Congress Pkwy","latitude":"41.8761","longitude":"-87.6244","capacity":"15"},{"id":"46","name":"Wells St & Walton St","latitude":"41.8999","longitude":"-87.6344","capacity":"19"},{"id":"50","name":"State St & Kinzie St","latitude":"41.8892","longitude":"-87.6277","capacity":"15"},{"id":"12","name":"Larrabee St & Kingsbury St","latitude":"41.8978","longitude":"-87.6429","capacity":"27"},{"id":"49","name":"Dearborn St & Monroe St","latitude":"41.8813","longitude":"-87.6295","capacity":"23"},{"id":"9","name":"Clark St & Congress Pkwy","latitude":"41.8759","longitude":"-87.6306","capacity":"27"},{"id":"5","name":"Clark St & Randolph St","latitude":"41.8846","longitude":"-87.6319","capacity":"31"},{"id":"43","name":"Michigan Ave & Lake St","latitude":"41.8861","longitude":"-87.6243","capacity":"23"},{"id":"64","name":"Wells St & Erie St","latitude":"41.8938","longitude":"-87.6342","capacity":"19"},{"id":"44","name":"Ogden Ave & Chicago Ave","latitude":"41.8964","longitude":"-87.6541","capacity":"19"},{"id":"166","name":"Halsted St & James M Rochford St","latitude":"41.8659","longitude":"-87.6466","capacity":"15"},{"id":"39","name":"Desplaines St & Kinzie St","latitude":"41.8887","longitude":"-87.6444","capacity":"19"},{"id":"327","name":"Clinton St & Roosevelt Rd","latitude":"41.8671","longitude":"-87.6411","capacity":"15"},{"id":"25","name":"Ashland Ave & Armitage Ave","latitude":"41.9179","longitude":"-87.6689","capacity":"15"},{"id":"31","name":"Wabash Ave & Roosevelt Rd","latitude":"41.8672","longitude":"-87.626","capacity":"19"},{"id":"58","name":"Dayton St & North Ave","latitude":"41.9106","longitude":"-87.6494","capacity":"19"},{"id":"221","name":"Wood St & Milwaukee Ave","latitude":"41.9077","longitude":"-87.6726","capacity":"15"},{"id":"106","name":"McCormick Place","latitude":"41.8514","longitude":"-87.6188","capacity":"15"},{"id":"21","name":"Clinton St & Lake St","latitude":"41.8858","longitude":"-87.6414","capacity":"19"},{"id":"60","name":"Sheffield Ave & Fullerton Ave","latitude":"41.9256","longitude":"-87.6537","capacity":"15"},{"id":"37","name":"Clinton St & Tilden St","latitude":"41.8759","longitude":"-87.6408","capacity":"23"},{"id":"65","name":"Damen Ave & Pierce Ave","latitude":"41.9094","longitude":"-87.6777","capacity":"19"},{"id":"72","name":"Morgan St & Lake St","latitude":"41.8855","longitude":"-87.6523","capacity":"15"},{"id":"148","name":"State St & 16th St","latitude":"41.8601","longitude":"-87.6277","capacity":"15"},{"id":"38","name":"Jefferson St & Monroe St","latitude":"41.8804","longitude":"-87.6427","capacity":"19"},{"id":"265","name":"Kingsbury St & Erie St","latitude":"41.8938","longitude":"-87.6419","capacity":"23"},{"id":"138","name":"Canal St & Jackson Blvd","latitude":"41.8781","longitude":"-87.64","capacity":"35"},{"id":"300","name":"Lake Shore Dr & Monroe St","latitude":"41.8811","longitude":"-87.617","capacity":"11"},{"id":"301","name":"Clinton St & Madison St","latitude":"41.8816","longitude":"-87.6413","capacity":"23"},{"id":"156","name":"Aberdeen St & Madison St","latitude":"41.8815","longitude":"-87.6548","capacity":"19"},{"id":"23","name":"Daley Center Plaza","latitude":"41.8843","longitude":"-87.6302","capacity":"47"},{"id":"33","name":"Green St & Milwaukee Ave","latitude":"41.8917","longitude":"-87.6487","capacity":"19"},{"id":"42","name":"Michigan Ave & Oak St","latitude":"41.901","longitude":"-87.6238","capacity":"15"},{"id":"289","name":"Eckhart Park","latitude":"41.8964","longitude":"-87.661","capacity":"15"},{"id":"189","name":"Racine Ave & Fullerton Ave","latitude":"41.9256","longitude":"-87.6584","capacity":"19"},{"id":"155","name":"May St & Randolph St","latitude":"41.884","longitude":"-87.6557","capacity":"15"},{"id":"8","name":"Millennium Park","latitude":"41.881","longitude":"-87.6241","capacity":"35"},{"id":"10","name":"Clinton St & Washington Blvd","latitude":"41.8834","longitude":"-87.6412","capacity":"31"},{"id":"196","name":"Carpenter St & Huron St","latitude":"41.8946","longitude":"-87.6535","capacity":"19"},{"id":"190","name":"Sheffield Ave & Willow St","latitude":"41.9137","longitude":"-87.6529","capacity":"15"},{"id":"146","name":"Lincoln Ave & Armitage Ave","latitude":"41.9183","longitude":"-87.6381","capacity":"19"},{"id":"29","name":"Museum Campus","latitude":"41.8652","longitude":"-87.6178","capacity":"19"},{"id":"6","name":"LaSalle St & Washington St","latitude":"41.8827","longitude":"-87.6325","capacity":"15"},{"id":"337","name":"Lake Shore Dr & Ohio St","latitude":"41.8926","longitude":"-87.6145","capacity":"19"},{"id":"13","name":"Orleans St & Merchandise Mart Plaza","latitude":"41.8882","longitude":"-87.6364","capacity":"23"},{"id":"14","name":"State St & Pearson St","latitude":"41.8974","longitude":"-87.6287","capacity":"27"},{"id":"27","name":"Halsted St & Polk St","latitude":"41.8718","longitude":"-87.6466","capacity":"19"},{"id":"28","name":"900 W Harrison","latitude":"41.8745","longitude":"-87.6498","capacity":"19"},{"id":"45","name":"State St & Erie St","latitude":"41.894","longitude":"-87.6286","capacity":"23"},{"id":"52","name":"Sedgwick St & Huron St","latitude":"41.8947","longitude":"-87.6384","capacity":"19"},{"id":"53","name":"Green St & Randolph St","latitude":"41.8841","longitude":"-87.6487","capacity":"15"},{"id":"59","name":"Bissell St & Armitage Ave","latitude":"41.9184","longitude":"-87.6522","capacity":"15"},{"id":"62","name":"Sheffield Ave & Addison St","latitude":"41.9469","longitude":"-87.6544","capacity":"27"},{"id":"67","name":"Sheffield Ave & Wellington Ave","latitude":"41.9363","longitude":"-87.6536","capacity":"23"},{"id":"68","name":"Western Ave & Winnebago Ave","latitude":"41.9155","longitude":"-87.687","capacity":"15"},{"id":"69","name":"Wilton Ave & Belmont Ave","latitude":"41.9402","longitude":"-87.653","capacity":"23"},{"id":"70","name":"Sedgwick St & North Ave","latitude":"41.9106","longitude":"-87.6386","capacity":"19"},{"id":"73","name":"Ashland Ave & Lake St","latitude":"41.8854","longitude":"-87.6673","capacity":"19"},{"id":"75","name":"Wentworth Ave & Archer Ave","latitude":"41.8546","longitude":"-87.6319","capacity":"15"},{"id":"398","name":"Blackstone Ave & Hyde Park Blvd","latitude":"41.8026","longitude":"-87.5904","capacity":"15"},{"id":"0","name":"Congress Pkwy & Ogden Ave","latitude":"41.875","longitude":"-87.6733","capacity":"15"},{"id":"84","name":"California Ave & Milwaukee Ave","latitude":"41.9227","longitude":"-87.6972","capacity":"15"},{"id":"89","name":"Damen Ave & Cullerton St","latitude":"41.855","longitude":"-87.6757","capacity":"15"},{"id":"128","name":"Clark St & North Ave","latitude":"41.9118","longitude":"-87.6318","capacity":"15"},{"id":"131","name":"Lincoln Ave & Fullerton Ave","latitude":"41.9259","longitude":"-87.6493","capacity":"15"},{"id":"132","name":"Damen Ave & Chicago Ave","latitude":"41.8958","longitude":"-87.6772","capacity":"15"},{"id":"135","name":"Blue Island Ave & 18th St","latitude":"41.8576","longitude":"-87.6615","capacity":"15"},{"id":"136","name":"Damen Ave & Division St","latitude":"41.9033","longitude":"-87.6769","capacity":"15"},{"id":"140","name":"Lincoln Ave & Belmont Ave","latitude":"41.9394","longitude":"-87.6684","capacity":"15"},{"id":"149","name":"Wentworth Ave & 24th St","latitude":"41.8492","longitude":"-87.6317","capacity":"15"},{"id":"158","name":"Peoria St & Jackson Blvd","latitude":"41.8778","longitude":"-87.6496","capacity":"19"},{"id":"162","name":"Halsted St & 21st St","latitude":"41.8538","longitude":"-87.6467","capacity":"11"},{"id":"165","name":"Racine Ave & 13th St","latitude":"41.8651","longitude":"-87.657","capacity":"15"},{"id":"169","name":"Morgan Ave & 14th Pl","latitude":"41.8624","longitude":"-87.6511","capacity":"15"},{"id":"171","name":"Clybourn Ave & Division St","latitude":"41.9045","longitude":"-87.6405","capacity":"15"},{"id":"173","name":"Dearborn Pkwy & Delaware Pl","latitude":"41.899","longitude":"-87.6299","capacity":"19"},{"id":"179","name":"Clark St & Lincoln Ave","latitude":"41.9157","longitude":"-87.6346","capacity":"19"},{"id":"191","name":"Sedgwick St & Webster Ave","latitude":"41.922","longitude":"-87.6385","capacity":"15"},{"id":"193","name":"Larrabee St & Webster Ave","latitude":"41.9217","longitude":"-87.644","capacity":"15"},{"id":"206","name":"Loomis St & Jackson Blvd","latitude":"41.8779","longitude":"-87.662","capacity":"11"},{"id":"212","name":"Indiana Ave & 26th St","latitude":"41.8457","longitude":"-87.6225","capacity":"15"},{"id":"216","name":"State St & 33rd St","latitude":"41.8347","longitude":"-87.6258","capacity":"11"},{"id":"217","name":"Calumet Ave & 33rd St","latitude":"41.8349","longitude":"-87.6179","capacity":"11"},{"id":"220","name":"Fort Dearborn Dr & 31st St","latitude":"41.8386","longitude":"-87.6082","capacity":"11"},{"id":"226","name":"Lincoln Ave & Diversey Pkwy","latitude":"41.9322","longitude":"-87.6586","capacity":"15"},{"id":"228","name":"Southport Ave & Wellington Ave","latitude":"41.9358","longitude":"-87.6637","capacity":"19"},{"id":"229","name":"Southport Ave & Belmont Ave","latitude":"41.9395","longitude":"-87.6638","capacity":"15"},{"id":"232","name":"Clark St & Wellington Ave","latitude":"41.9365","longitude":"-87.6475","capacity":"15"},{"id":"234","name":"Lake Shore Dr & Wellington Ave","latitude":"41.9367","longitude":"-87.6368","capacity":"15"},{"id":"243","name":"Milwaukee Ave & Wabansia Ave","latitude":"41.9126","longitude":"-87.6814","capacity":"15"},{"id":"245","name":"Claremont Ave & Hirsch St","latitude":"41.9078","longitude":"-87.6859","capacity":"11"},{"id":"257","name":"Campbell Ave & North Ave","latitude":"41.9105","longitude":"-87.6896","capacity":"15"},{"id":"268","name":"Damen Ave & Wellington Ave","latitude":"41.9359","longitude":"-87.6784","capacity":"15"},{"id":"271","name":"Paulina St & Diversey Pkwy","latitude":"41.9319","longitude":"-87.6708","capacity":"15"},{"id":"272","name":"Franklin St & Lake St","latitude":"41.8858","longitude":"-87.6355","capacity":"23"},{"id":"275","name":"Clark St & Waveland Ave","latitude":"41.9489","longitude":"-87.6578","capacity":"19"},{"id":"296","name":"Ashland Ave & Wrightwood Ave","latitude":"41.9288","longitude":"-87.6685","capacity":"15"},{"id":"306","name":"Damen Ave & Coulter St","latitude":"41.8492","longitude":"-87.6756","capacity":"11"},{"id":"310","name":"Michigan Ave & 14th St","latitude":"41.8641","longitude":"-87.6237","capacity":"19"},{"id":"326","name":"Canal St & Harrison St","latitude":"41.8743","longitude":"-87.6396","capacity":"15"},{"id":"329","name":"Clinton St & 18th St","latitude":"41.8579","longitude":"-87.6408","capacity":"15"},{"id":"331","name":"May St & Cullerton St","latitude":"41.8551","longitude":"-87.6541","capacity":"11"},{"id":"338","name":"Mies van der Rohe Way & Chicago Ave","latitude":"41.8969","longitude":"-87.6217","capacity":"15"},{"id":"341","name":"Canal St & Madison St","latitude":"41.8821","longitude":"-87.6398","capacity":"23"},{"id":"344","name":"Wells St & Polk St","latitude":"41.8724","longitude":"-87.6335","capacity":"19"},{"id":"349","name":"Clark St & Elm St","latitude":"41.9032","longitude":"-87.6313","capacity":"19"},{"id":"350","name":"Theater on the Lake","latitude":"41.9263","longitude":"-87.6308","capacity":"15"},{"id":"408","name":"State St & 19th St","latitude":"41.8566","longitude":"-87.6275","capacity":"15"},{"id":"420","name":"Martin Luther King Dr & Oakwood Blvd","latitude":"41.8226","longitude":"-87.6161","capacity":"15"},{"id":"430","name":"LaSalle St & Illinois St","latitude":"41.8908","longitude":"-87.6321","capacity":"19"},{"id":"142","name":"Damen Ave & Augusta Blvd","latitude":"41.8997","longitude":"-87.6772","capacity":"15"},{"id":"82","name":"State St & 35th St","latitude":"41.831","longitude":"-87.6269","capacity":"19"},{"id":"266","name":"Stave St & Armitage Ave","latitude":"41.9177","longitude":"-87.6914","capacity":"11"},{"id":"194","name":"Ogden Ave & Race Ave","latitude":"41.8918","longitude":"-87.6588","capacity":"15"},{"id":"295","name":"Greenview Ave & Fullerton Ave","latitude":"41.9253","longitude":"-87.6658","capacity":"15"},{"id":"298","name":"Southport Ave & Wrightwood Ave","latitude":"41.9289","longitude":"-87.6632","capacity":"15"},{"id":"56","name":"Canal St & Monroe St","latitude":"41.8807","longitude":"-87.6395","capacity":"23"},{"id":"11","name":"Canal St & Adams St","latitude":"41.8792","longitude":"-87.64","capacity":"27"},{"id":"213","name":"State St & 29th St","latitude":"41.8417","longitude":"-87.6269","capacity":"15"},{"id":"339","name":"State St & Wacker Dr","latitude":"41.8872","longitude":"-87.6277","capacity":"11"},{"id":"263","name":"Columbus Dr & Randolph St","latitude":"41.8853","longitude":"-87.6208","capacity":"23"},{"id":"427","name":"Cityfront Plaza & N Water St","latitude":"41.8899","longitude":"-87.622","capacity":"19"},{"id":"36","name":"Michigan Ave & Madison St","latitude":"41.8821","longitude":"-87.6251","capacity":"19"},{"id":"159","name":"Halsted St & Madison St","latitude":"41.8817","longitude":"-87.6478","capacity":"19"},{"id":"4","name":"Wabash Ave & Grand Ave","latitude":"41.8917","longitude":"-87.6269","capacity":"15"},{"id":"90","name":"King Dr & 47th St","latitude":"41.8099","longitude":"-87.6163","capacity":"11"},{"id":"83","name":"Indiana Ave & 40th St","latitude":"41.8217","longitude":"-87.6216","capacity":"15"},{"id":"99","name":"Halsted St & 18th St","latitude":"41.8575","longitude":"-87.6463","capacity":"15"},{"id":"91","name":"Western Ave & 21st St","latitude":"41.8539","longitude":"-87.6852","capacity":"15"},{"id":"101","name":"Prairie Ave & Garfield Blvd","latitude":"41.7951","longitude":"-87.6194","capacity":"15"},{"id":"88","name":"Paulina St & 18th St","latitude":"41.8579","longitude":"-87.6687","capacity":"15"},{"id":"98","name":"Halsted St & Archer Ave","latitude":"41.8472","longitude":"-87.6468","capacity":"15"},{"id":"399","name":"Emerald Ave & 28th St","latitude":"41.8436","longitude":"-87.6454","capacity":"15"},{"id":"307","name":"Ashland Ave & 21st St","latitude":"41.8538","longitude":"-87.6659","capacity":"15"},{"id":"308","name":"Normal Ave & Archer Ave","latitude":"41.8495","longitude":"-87.6406","capacity":"11"},{"id":"61","name":"Ashland Ave & Division St","latitude":"41.9035","longitude":"-87.6678","capacity":"19"},{"id":"16","name":"St Clair St & Erie St","latitude":"41.8944","longitude":"-87.6227","capacity":"19"},{"id":"264","name":"Wells St & Ohio St","latitude":"41.8922","longitude":"-87.634","capacity":"19"},{"id":"244","name":"Leavitt St & North Ave","latitude":"41.9107","longitude":"-87.6824","capacity":"11"},{"id":"141","name":"Damen Ave & Grand Ave","latitude":"41.8912","longitude":"-87.6769","capacity":"15"},{"id":"134","name":"Damen Ave & Madison St","latitude":"41.8814","longitude":"-87.6749","capacity":"15"},{"id":"256","name":"California Ave & Division St","latitude":"41.903","longitude":"-87.6975","capacity":"15"},{"id":"197","name":"May St & Fulton St","latitude":"41.8868","longitude":"-87.656","capacity":"15"},{"id":"180","name":"Wells St & 19th St","latitude":"41.8568","longitude":"-87.6339","capacity":"11"},{"id":"133","name":"Damen Ave & Cortland Ave","latitude":"41.916","longitude":"-87.6774","capacity":"11"},{"id":"123","name":"Hampden Ct & Diversey Pkwy","latitude":"41.9326","longitude":"-87.6424","capacity":"19"},{"id":"242","name":"Milwaukee Ave & Rockwell St","latitude":"41.9202","longitude":"-87.693","capacity":"19"},{"id":"185","name":"Clifton Ave & Armitage Ave","latitude":"41.9182","longitude":"-87.6569","capacity":"15"},{"id":"181","name":"Halsted St & Willow St","latitude":"41.9138","longitude":"-87.6488","capacity":"19"},{"id":"192","name":"Halsted St & Dickens Ave","latitude":"41.9199","longitude":"-87.6488","capacity":"15"},{"id":"230","name":"Racine Ave & Belmont Ave","latitude":"41.9397","longitude":"-87.6589","capacity":"15"},{"id":"235","name":"Southport Ave & Waveland Ave","latitude":"41.9482","longitude":"-87.6639","capacity":"15"},{"id":"143","name":"Damen Ave & Melrose Ave","latitude":"41.9406","longitude":"-87.6785","capacity":"11"},{"id":"71","name":"Southport Ave & Roscoe St","latitude":"41.9437","longitude":"-87.664","capacity":"19"},{"id":"78","name":"Lincoln Ave & Roscoe St","latitude":"41.9433","longitude":"-87.671","capacity":"19"},{"id":"130","name":"Sheridan Rd & Montrose Ave","latitude":"41.9617","longitude":"-87.6546","capacity":"15"},{"id":"273","name":"Pine Grove Ave & Addison St","latitude":"41.9478","longitude":"-87.6454","capacity":"15"},{"id":"409","name":"Sangamon St & Washington Blvd","latitude":"41.883","longitude":"-87.6511","capacity":"15"},{"id":"316","name":"Clark St & Montrose Ave","latitude":"41.9616","longitude":"-87.666","capacity":"19"},{"id":"410","name":"Sedgwick St & Schiller St","latitude":"41.9076","longitude":"-87.6385","capacity":"15"},{"id":"214","name":"Martin Luther King Dr & 29th St","latitude":"41.8421","longitude":"-87.617","capacity":"15"},{"id":"92","name":"Ravenswood Ave & Montrose Ave","latitude":"41.9616","longitude":"-87.6741","capacity":"15"},{"id":"112","name":"Western Ave & Leland Ave","latitude":"41.9666","longitude":"-87.6885","capacity":"15"},{"id":"63","name":"Sheridan Rd & Irving Park Rd","latitude":"41.9543","longitude":"-87.6546","capacity":"11"},{"id":"168","name":"Morgan St & Polk St","latitude":"41.8717","longitude":"-87.651","capacity":"15"},{"id":"93","name":"Damen Ave & Leland Ave","latitude":"41.9671","longitude":"-87.679","capacity":"15"},{"id":"126","name":"Lincoln Ave & Leavitt St","latitude":"41.9624","longitude":"-87.6841","capacity":"15"},{"id":"87","name":"Ravenswood Ave & Irving Park Rd","latitude":"41.9547","longitude":"-87.6739","capacity":"19"},{"id":"389","name":"Clarendon Ave & Junior Ter","latitude":"41.961","longitude":"-87.6496","capacity":"15"},{"id":"249","name":"Ashland Ave & Belle Plaine Ave","latitude":"41.9561","longitude":"-87.6689","capacity":"11"},{"id":"361","name":"Shore Drive & 55th St","latitude":"41.7952","longitude":"-87.5807","capacity":"15"},{"id":"362","name":"Woodlawn Ave & 55th St","latitude":"41.7953","longitude":"-87.5965","capacity":"15"},{"id":"388","name":"Montrose Harbor","latitude":"41.964","longitude":"-87.6382","capacity":"15"},{"id":"269","name":"Ashland Ave & Wellington Ave","latitude":"41.9361","longitude":"-87.6698","capacity":"19"},{"id":"385","name":"Clarendon Ave & Leland Ave","latitude":"41.968","longitude":"-87.65","capacity":"15"},{"id":"396","name":"Greenwood Ave & 47th St","latitude":"41.8098","longitude":"-87.5994","capacity":"15"},{"id":"104","name":"Clifton Ave & Lawrence Ave","latitude":"41.9689","longitude":"-87.6589","capacity":"15"},{"id":"324","name":"Pine Grove Ave & Irving Park Rd","latitude":"41.9544","longitude":"-87.648","capacity":"15"},{"id":"309","name":"Indiana Ave & Roosevelt Rd","latitude":"41.8679","longitude":"-87.623","capacity":"19"},{"id":"323","name":"Broadway & Sheridan Rd","latitude":"41.9528","longitude":"-87.65","capacity":"15"},{"id":"253","name":"Lincoln Ave & Waveland Ave","latitude":"41.9491","longitude":"-87.6751","capacity":"15"},{"id":"145","name":"Logan Blvd & Elston Ave","latitude":"41.9306","longitude":"-87.6851","capacity":"19"},{"id":"259","name":"California Ave & Francis Pl","latitude":"41.9185","longitude":"-87.6972","capacity":"15"},{"id":"85","name":"Kedzie Ave & Milwaukee Ave","latitude":"41.9296","longitude":"-87.7079","capacity":"19"},{"id":"80","name":"Hermitage Ave & Polk St","latitude":"41.8715","longitude":"-87.6699","capacity":"15"},{"id":"414","name":"Halsted St & 37th St","latitude":"41.8271","longitude":"-87.6458","capacity":"11"},{"id":"215","name":"Rhodes Ave & 32nd St","latitude":"41.8362","longitude":"-87.6135","capacity":"11"},{"id":"48","name":"Stetson Ave & South Water St","latitude":"41.8869","longitude":"-87.6227","capacity":"19"},{"id":"346","name":"Cottage Grove Ave & Oakwood Blvd","latitude":"41.823","longitude":"-87.6071","capacity":"15"},{"id":"117","name":"Lake Park Ave & 47th St","latitude":"41.8094","longitude":"-87.5919","capacity":"15"},{"id":"328","name":"Lake Shore Dr & North Blvd","latitude":"41.9117","longitude":"-87.6268","capacity":"15"},{"id":"86","name":"Cottage Grove Ave & 43rd St","latitude":"41.8165","longitude":"-87.6066","capacity":"11"},{"id":"219","name":"Indiana Ave & 31st St","latitude":"41.8388","longitude":"-87.6219","capacity":"11"},{"id":"150","name":"Michigan Ave & 18th St","latitude":"41.8579","longitude":"-87.6236","capacity":"15"},{"id":"304","name":"Racine Ave & 15th St","latitude":"41.8613","longitude":"-87.6566","capacity":"15"},{"id":"354","name":"Ashland Ave & 13th St","latitude":"41.8652","longitude":"-87.6665","capacity":"15"},{"id":"258","name":"California Ave & North Ave","latitude":"41.9104","longitude":"-87.6972","capacity":"11"},{"id":"434","name":"Ashland Ave & Grand Ave","latitude":"41.8911","longitude":"-87.6666","capacity":"15"},{"id":"417","name":"Wallace Ave & 35th St","latitude":"41.8306","longitude":"-87.6413","capacity":"15"},{"id":"413","name":"Halsted St & 35th St","latitude":"41.8307","longitude":"-87.6472","capacity":"15"},{"id":"97","name":"Morgan St & 31st St","latitude":"41.8378","longitude":"-87.6511","capacity":"11"},{"id":"393","name":"Western Ave & 24th St","latitude":"41.8485","longitude":"-87.6851","capacity":"15"},{"id":"161","name":"Halsted St & Maxwell St","latitude":"41.8646","longitude":"-87.6469","capacity":"15"},{"id":"32","name":"LaSalle St & Jackson Blvd","latitude":"41.8782","longitude":"-87.632","capacity":"23"},{"id":"340","name":"Michigan Ave & Jackson Blvd","latitude":"41.8778","longitude":"-87.6241","capacity":"23"},{"id":"432","name":"Wood St & Grand Ave","latitude":"41.8911","longitude":"-87.672","capacity":"15"},{"id":"7","name":"Franklin St & Quincy St","latitude":"41.8787","longitude":"-87.6348","capacity":"15"},{"id":"57","name":"Franklin St & Arcade Pl","latitude":"41.8811","longitude":"-87.6352","capacity":"23"},{"id":"184","name":"Larrabee St & Armitage Ave","latitude":"41.918","longitude":"-87.6437","capacity":"11"},{"id":"182","name":"Wells St & Concord Ln","latitude":"41.9122","longitude":"-87.6347","capacity":"19"},{"id":"292","name":"Kedzie Ave & Palmer Ct","latitude":"41.9215","longitude":"-87.7073","capacity":"15"},{"id":"302","name":"Wells St & Evergreen Ave","latitude":"41.9067","longitude":"-87.6348","capacity":"19"},{"id":"317","name":"Southport Ave & Clark St","latitude":"41.9571","longitude":"-87.6642","capacity":"11"},{"id":"74","name":"Broadway & Wilson Ave","latitude":"41.9653","longitude":"-87.6588","capacity":"19"},{"id":"109","name":"Broadway & Berwyn Ave","latitude":"41.9784","longitude":"-87.6598","capacity":"15"},{"id":"108","name":"Broadway & Argyle St","latitude":"41.973","longitude":"-87.6596","capacity":"15"},{"id":"277","name":"Broadway & Belmont Ave","latitude":"41.9401","longitude":"-87.6455","capacity":"15"},{"id":"250","name":"Paulina St & Montrose Ave","latitude":"41.9615","longitude":"-87.6714","capacity":"15"},{"id":"252","name":"Lincoln Ave & Belle Plaine Ave","latitude":"41.9559","longitude":"-87.6793","capacity":"15"},{"id":"127","name":"Halsted St & Roscoe St","latitude":"41.9437","longitude":"-87.6489","capacity":"15"},{"id":"137","name":"Broadway & Barry Ave","latitude":"41.9377","longitude":"-87.6441","capacity":"15"},{"id":"200","name":"Clark St & Schiller St","latitude":"41.908","longitude":"-87.6315","capacity":"19"},{"id":"211","name":"Sheffield Ave & Wrightwood Ave","latitude":"41.9287","longitude":"-87.6538","capacity":"19"},{"id":"278","name":"Broadway & Cornelia Ave","latitude":"41.9455","longitude":"-87.646","capacity":"15"},{"id":"325","name":"Halsted St & Waveland Ave","latitude":"41.9493","longitude":"-87.6496","capacity":"15"},{"id":"241","name":"Western Ave & Division St","latitude":"41.9029","longitude":"-87.6873","capacity":"15"},{"id":"374","name":"Sheridan Rd & Buena Ave","latitude":"41.9584","longitude":"-87.6542","capacity":"15"},{"id":"186","name":"Southport Ave & Clybourn Ave","latitude":"41.921","longitude":"-87.6633","capacity":"15"},{"id":"144","name":"Seeley Ave & Roscoe St","latitude":"41.9434","longitude":"-87.6796","capacity":"11"},{"id":"286","name":"Leavitt St & Armitage Ave","latitude":"41.9178","longitude":"-87.6824","capacity":"11"},{"id":"288","name":"Damen Ave & Charleston St","latitude":"41.9201","longitude":"-87.6779","capacity":"11"},{"id":"237","name":"Lincoln Ave & Eastwood Ave","latitude":"41.9658","longitude":"-87.6865","capacity":"15"},{"id":"379","name":"Clarendon Ave & Gordon Ter","latitude":"41.9579","longitude":"-87.6495","capacity":"15"},{"id":"147","name":"Lakeview Ave & Fullerton Pkwy","latitude":"41.9259","longitude":"-87.639","capacity":"19"},{"id":"251","name":"Ravenswood Ave & Berteau Ave","latitude":"41.9579","longitude":"-87.6736","capacity":"15"},{"id":"255","name":"Leavitt St & Hirsch St","latitude":"41.9067","longitude":"-87.6828","capacity":"11"},{"id":"315","name":"Damen Ave & Sunnyside Ave","latitude":"41.9632","longitude":"-87.6793","capacity":"19"},{"id":"285","name":"Wood St & Taylor St","latitude":"41.8692","longitude":"-87.671","capacity":"15"},{"id":"321","name":"Southport Ave & Irving Park Rd","latitude":"41.9542","longitude":"-87.6644","capacity":"15"},{"id":"294","name":"Greenview Ave & Diversey Pkwy","latitude":"41.9326","longitude":"-87.6659","capacity":"15"},{"id":"332","name":"Loomis St & Lexington St","latitude":"41.8722","longitude":"-87.6615","capacity":"15"},{"id":"54","name":"Wabash Ave & 8th St","latitude":"41.872","longitude":"-87.6261","capacity":"19"},{"id":"397","name":"Kimbark Ave & 53rd St","latitude":"41.7996","longitude":"-87.5947","capacity":"15"},{"id":"384","name":"Sheridan Rd & Lawrence Ave","latitude":"41.9695","longitude":"-87.6547","capacity":"15"},{"id":"276","name":"Stockton Dr & Wrightwood Ave","latitude":"41.9313","longitude":"-87.6387","capacity":"15"},{"id":"392","name":"Clark St & Winnemac Ave","latitude":"41.9734","longitude":"-87.6684","capacity":"15"},{"id":"239","name":"Clark St & Leland Ave","latitude":"41.9671","longitude":"-87.6674","capacity":"11"},{"id":"188","name":"Sheffield Ave & Webster Ave","latitude":"41.9217","longitude":"-87.6537","capacity":"19"},{"id":"365","name":"Ellis Ave & 58th St","latitude":"41.7887","longitude":"-87.6013","capacity":"15"},{"id":"347","name":"Lake Shore Dr & Diversey Pkwy","latitude":"41.9327","longitude":"-87.6363","capacity":"15"},{"id":"77","name":"Lincoln Ave & Addison St","latitude":"41.9462","longitude":"-87.6733","capacity":"19"},{"id":"176","name":"Halsted St & Blackhawk St","latitude":"41.9085","longitude":"-87.6486","capacity":"19"},{"id":"208","name":"Halsted St & Diversey Pkwy","latitude":"41.9333","longitude":"-87.6488","capacity":"15"},{"id":"224","name":"Ashland Ave & Blackhawk St","latitude":"41.9071","longitude":"-87.6673","capacity":"15"},{"id":"233","name":"Lake Shore Dr & Belmont Ave","latitude":"41.9408","longitude":"-87.6392","capacity":"19"},{"id":"345","name":"Calumet Ave & 35th St","latitude":"41.8314","longitude":"-87.618","capacity":"15"},{"id":"422","name":"Cottage Grove Ave & 47th St","latitude":"41.8099","longitude":"-87.6068","capacity":"15"},{"id":"303","name":"Clark St & Chicago Ave","latitude":"41.8965","longitude":"-87.6309","capacity":"19"},{"id":"102","name":"Calumet Ave & 18th St","latitude":"41.8576","longitude":"-87.6194","capacity":"15"},{"id":"404","name":"Emerald Ave & 31st St","latitude":"41.8382","longitude":"-87.6451","capacity":"11"},{"id":"209","name":"Clark St & Wrightwood Ave","latitude":"41.9295","longitude":"-87.6431","capacity":"15"},{"id":"431","name":"Adler Planetarium","latitude":"41.8661","longitude":"-87.6073","capacity":"19"},{"id":"284","name":"Wolcott Ave & Polk St","latitude":"41.8713","longitude":"-87.6737","capacity":"15"},{"id":"297","name":"Racine Ave & Wrightwood Ave","latitude":"41.9289","longitude":"-87.659","capacity":"15"},{"id":"26","name":"Wolcott Ave & Lawrence Ave","latitude":"41.9686","longitude":"-87.6763","capacity":"15"},{"id":"119","name":"Lake Park Ave & 56th St","latitude":"41.7932","longitude":"-87.5878","capacity":"15"},{"id":"353","name":"Ada St & Washington Blvd","latitude":"41.8828","longitude":"-87.6612","capacity":"15"},{"id":"319","name":"Ashland Ave & Grace St","latitude":"41.9507","longitude":"-87.6687","capacity":"15"},{"id":"96","name":"California Ave & 21st St","latitude":"41.854","longitude":"-87.6954","capacity":"15"},{"id":"210","name":"Halsted St & Wrightwood Ave","latitude":"41.9291","longitude":"-87.6491","capacity":"15"},{"id":"247","name":"Ashland Ave & Chicago Ave","latitude":"41.896","longitude":"-87.6677","capacity":"15"},{"id":"440","name":"Cottage Grove Ave & 51st St","latitude":"41.803","longitude":"-87.6066","capacity":"15"}]